$GPGGA,160328.00,4825.075365,N,00428.360219,W,1,11,0.8,97.304,M,51.640,M,,*4F
$GPGGA,160329.00,4825.075365,N,00428.360218,W,1,11,0.8,97.308,M,51.640,M,,*43
$GPGGA,160330.00,4825.075365,N,00428.360219,W,1,11,0.8,97.310,M,51.640,M,,*43
$GPGGA,160331.00,4825.075364,N,00428.360218,W,1,11,0.8,97.314,M,51.640,M,,*46
$GPGGA,160332.00,4825.075364,N,00428.360218,W,1,11,0.8,97.316,M,51.640,M,,*47
$GPGGA,160333.00,4825.075363,N,00428.360218,W,1,11,0.8,97.318,M,51.640,M,,*4F
$GPGGA,160334.00,4825.075363,N,00428.360217,W,1,11,0.8,97.321,M,51.640,M,,*4D
$GPGGA,160335.00,4825.075363,N,00428.360216,W,1,11,0.8,97.321,M,51.640,M,,*4D
$GPGGA,160336.00,4825.075362,N,00428.360216,W,1,11,0.8,97.325,M,51.640,M,,*4B
$GPGGA,160337.00,4825.075363,N,00428.360216,W,1,11,0.8,97.323,M,51.640,M,,*4D
$GPGGA,160338.00,4825.075362,N,00428.360214,W,1,11,0.8,97.328,M,51.640,M,,*4A
$GPGGA,160339.00,4825.075362,N,00428.360213,W,1,11,0.8,97.331,M,51.640,M,,*44
$GPGGA,160340.00,4825.075362,N,00428.360214,W,1,11,0.8,97.332,M,51.640,M,,*4E
$GPGGA,160341.00,4825.075361,N,00428.360214,W,1,11,0.8,97.332,M,51.640,M,,*4C
$GPGGA,160342.00,4825.075361,N,00428.360212,W,1,11,0.8,97.330,M,51.640,M,,*4B
$GPGGA,160343.00,4825.075361,N,00428.360211,W,1,11,0.8,97.327,M,51.640,M,,*4F
$GPGGA,160344.00,4825.075361,N,00428.360211,W,1,11,0.8,97.330,M,51.640,M,,*4E
$GPGGA,160345.00,4825.075361,N,00428.360211,W,1,11,0.8,97.333,M,51.640,M,,*4C
$GPGGA,160346.00,4825.075361,N,00428.360210,W,1,11,0.8,97.335,M,51.640,M,,*48
$GPGGA,160347.00,4825.075361,N,00428.360210,W,1,11,0.8,97.336,M,51.640,M,,*4A
$GPGGA,160348.00,4825.075361,N,00428.360211,W,1,11,0.8,97.340,M,51.640,M,,*45
$GPGGA,160349.00,4825.075362,N,00428.360211,W,1,11,0.8,97.342,M,51.640,M,,*45
$GPGGA,160350.00,4825.075362,N,00428.360210,W,1,11,0.8,97.343,M,51.640,M,,*4D
$GPGGA,160351.00,4825.075364,N,00428.360212,W,1,11,0.8,97.343,M,51.640,M,,*48
$GPGGA,160352.00,4825.075363,N,00428.360210,W,1,11,0.8,97.349,M,51.640,M,,*44
$GPGGA,160353.00,4825.075363,N,00428.360210,W,1,11,0.8,97.351,M,51.640,M,,*4C
$GPGGA,160354.00,4825.075364,N,00428.360209,W,1,11,0.8,97.354,M,51.640,M,,*41
$GPGGA,160355.00,4825.075363,N,00428.360209,W,1,11,0.8,97.354,M,51.640,M,,*47
$GPGGA,160356.00,4825.075363,N,00428.360209,W,1,11,0.8,97.359,M,51.640,M,,*49
$GPGGA,160357.00,4825.075363,N,00428.360209,W,1,11,0.8,97.363,M,51.640,M,,*41
$GPGGA,160358.00,4825.075363,N,00428.360209,W,1,11,0.8,97.363,M,51.640,M,,*4E
$GPGGA,160359.00,4825.075363,N,00428.360207,W,1,11,0.8,97.366,M,51.640,M,,*44
$GPGGA,160400.00,4825.075362,N,00428.360207,W,1,11,0.8,97.368,M,51.640,M,,*40
$GPGGA,160401.00,4825.075362,N,00428.360206,W,1,11,0.8,97.370,M,51.640,M,,*49
$GPGGA,160402.00,4825.075364,N,00428.360207,W,1,11,0.8,97.370,M,51.640,M,,*4D
$GPGGA,160403.00,4825.075362,N,00428.360207,W,1,11,0.8,97.376,M,51.640,M,,*4C
$GPGGA,160404.00,4825.075364,N,00428.360207,W,1,11,0.8,97.377,M,51.640,M,,*4C
$GPGGA,160405.00,4825.075363,N,00428.360206,W,1,11,0.8,97.380,M,51.640,M,,*43
$GPGGA,160406.00,4825.075363,N,00428.360207,W,1,11,0.8,97.382,M,51.640,M,,*43
$GPGGA,160407.00,4825.075364,N,00428.360207,W,1,11,0.8,97.379,M,51.640,M,,*41
$GPGGA,160408.00,4825.075364,N,00428.360207,W,1,11,0.8,97.378,M,51.640,M,,*4F
$GPGGA,160409.00,4825.075365,N,00428.360208,W,1,11,0.8,97.378,M,51.640,M,,*40
$GPGGA,160410.00,4825.075365,N,00428.360209,W,1,11,0.8,97.378,M,51.640,M,,*49
$GPGGA,160411.00,4825.075365,N,00428.360209,W,1,11,0.8,97.378,M,51.640,M,,*48
$GPGGA,160412.00,4825.075366,N,00428.360210,W,1,11,0.8,97.377,M,51.640,M,,*4F
$GPGGA,160413.00,4825.075366,N,00428.360209,W,1,11,0.8,97.379,M,51.640,M,,*48
$GPGGA,160414.00,4825.075368,N,00428.360210,W,1,11,0.8,97.381,M,51.640,M,,*4E
$GPGGA,160415.00,4825.075368,N,00428.360210,W,1,11,0.8,97.381,M,51.640,M,,*4F
$GPGGA,160416.00,4825.075369,N,00428.360211,W,1,11,0.8,97.384,M,51.640,M,,*49
$GPGGA,160417.00,4825.075369,N,00428.360212,W,1,11,0.8,97.383,M,51.640,M,,*4C
$GPGGA,160418.00,4825.075369,N,00428.360212,W,1,11,0.8,97.390,M,51.640,M,,*41
$GPGGA,160419.00,4825.075370,N,00428.360213,W,1,11,0.8,97.387,M,51.640,M,,*4F
$GPGGA,160420.00,4825.075370,N,00428.360214,W,1,11,0.8,97.389,M,51.640,M,,*4C
$GPGGA,160421.00,4825.075371,N,00428.360214,W,1,11,0.8,97.392,M,51.640,M,,*46
$GPGGA,160422.00,4825.075371,N,00428.360214,W,1,11,0.8,97.390,M,51.640,M,,*47
$GPGGA,160423.00,4825.075371,N,00428.360215,W,1,11,0.8,97.390,M,51.640,M,,*47
$GPGGA,160424.00,4825.075370,N,00428.360213,W,1,11,0.8,97.393,M,51.640,M,,*44
$GPGGA,160425.00,4825.075369,N,00428.360214,W,1,11,0.8,97.395,M,51.640,M,,*4C
$GPGGA,160426.00,4825.075369,N,00428.360214,W,1,11,0.8,97.399,M,51.640,M,,*43
$GPGGA,160427.00,4825.075369,N,00428.360215,W,1,11,0.8,97.401,M,51.640,M,,*45
$GPGGA,160428.00,4825.075370,N,00428.360216,W,1,11,0.8,97.400,M,51.640,M,,*40
$GPGGA,160429.00,4825.075368,N,00428.360217,W,1,11,0.8,97.400,M,51.640,M,,*49
$GPGGA,160430.00,4825.075368,N,00428.360217,W,1,11,0.8,97.405,M,51.640,M,,*44
$GPGGA,160431.00,4825.075368,N,00428.360218,W,1,11,0.8,97.406,M,51.640,M,,*49
$GPGGA,160432.00,4825.075366,N,00428.360218,W,1,11,0.8,97.406,M,51.640,M,,*44
$GPGGA,160433.00,4825.075367,N,00428.360218,W,1,11,0.8,97.409,M,51.640,M,,*4B
$GPGGA,160434.00,4825.075366,N,00428.360218,W,1,11,0.8,97.408,M,51.640,M,,*4C
$GPGGA,160435.00,4825.075366,N,00428.360218,W,1,11,0.8,97.407,M,51.640,M,,*42
$GPGGA,160436.00,4825.075366,N,00428.360218,W,1,11,0.8,97.409,M,51.640,M,,*4F
$GPGGA,160437.00,4825.075365,N,00428.360218,W,1,11,0.8,97.407,M,51.640,M,,*43
$GPGGA,160438.00,4825.075366,N,00428.360218,W,1,11,0.8,97.408,M,51.640,M,,*40
$GPGGA,160439.00,4825.075367,N,00428.360219,W,1,11,0.8,97.409,M,51.640,M,,*40
$GPGGA,160440.00,4825.075367,N,00428.360220,W,1,11,0.8,97.408,M,51.640,M,,*45
$GPGGA,160441.00,4825.075367,N,00428.360220,W,1,11,0.8,97.409,M,51.640,M,,*45
$GPGGA,160442.00,4825.075368,N,00428.360219,W,1,11,0.8,97.411,M,51.640,M,,*4A
$GPGGA,160443.00,4825.075368,N,00428.360219,W,1,11,0.8,97.406,M,51.640,M,,*4D
$GPGGA,160444.00,4825.075368,N,00428.360220,W,1,11,0.8,97.406,M,51.640,M,,*40
$GPGGA,160445.00,4825.075369,N,00428.360219,W,1,11,0.8,97.409,M,51.640,M,,*45
$GPGGA,160446.00,4825.075369,N,00428.360221,W,1,11,0.8,97.407,M,51.640,M,,*43
$GPGGA,160447.00,4825.075369,N,00428.360220,W,1,11,0.8,97.409,M,51.640,M,,*4D
$GPGGA,160448.00,4825.075369,N,00428.360219,W,1,11,0.8,97.408,M,51.640,M,,*49
$GPGGA,160449.00,4825.075369,N,00428.360220,W,1,11,0.8,97.409,M,51.640,M,,*43
$GPGGA,160450.00,4825.075369,N,00428.360219,W,1,11,0.8,97.408,M,51.640,M,,*40
$GPGGA,160451.00,4825.075369,N,00428.360219,W,1,11,0.8,97.409,M,51.640,M,,*40
$GPGGA,160452.00,4825.075369,N,00428.360218,W,1,11,0.8,97.411,M,51.640,M,,*4B
$GPGGA,160453.00,4825.075369,N,00428.360219,W,1,11,0.8,97.412,M,51.640,M,,*48
$GPGGA,160454.00,4825.075369,N,00428.360218,W,1,11,0.8,97.413,M,51.640,M,,*4F
$GPGGA,160455.00,4825.075371,N,00428.360218,W,1,11,0.8,97.413,M,51.640,M,,*47
$GPGGA,160456.00,4825.075369,N,00428.360218,W,1,11,0.8,97.416,M,51.640,M,,*48
$GPGGA,160457.00,4825.075370,N,00428.360219,W,1,11,0.8,97.418,M,51.640,M,,*4E
$GPGGA,160458.00,4825.075372,N,00428.360218,W,1,11,0.8,97.419,M,51.640,M,,*43
$GPGGA,160459.00,4825.075373,N,00428.360218,W,1,11,0.8,97.418,M,51.640,M,,*42
$GPGGA,160500.00,4825.075374,N,00428.360218,W,1,11,0.8,97.417,M,51.640,M,,*47
$GPGGA,160501.00,4825.075374,N,00428.360219,W,1,11,0.8,97.416,M,51.640,M,,*46
$GPGGA,160502.00,4825.075374,N,00428.360219,W,1,11,0.8,97.419,M,51.640,M,,*4A
$GPGGA,160503.00,4825.075375,N,00428.360220,W,1,11,0.8,97.419,M,51.640,M,,*40
$GPGGA,160504.00,4825.075376,N,00428.360220,W,1,11,0.8,97.420,M,51.640,M,,*4E
$GPGGA,160505.00,4825.075375,N,00428.360220,W,1,11,0.8,97.425,M,51.640,M,,*49
$GPGGA,160506.00,4825.075376,N,00428.360221,W,1,11,0.8,97.425,M,51.640,M,,*48
$GPGGA,160507.00,4825.075376,N,00428.360221,W,1,11,0.8,97.427,M,51.640,M,,*4B
$GPGGA,160508.00,4825.075376,N,00428.360221,W,1,11,0.8,97.429,M,51.640,M,,*4A
$GPGGA,160509.00,4825.075376,N,00428.360222,W,1,11,0.8,97.431,M,51.640,M,,*41
$GPGGA,160510.00,4825.075377,N,00428.360223,W,1,11,0.8,97.430,M,51.640,M,,*48
$GPGGA,160511.00,4825.075377,N,00428.360222,W,1,11,0.8,97.433,M,51.640,M,,*4B
$GPGGA,160512.00,4825.075377,N,00428.360222,W,1,11,0.8,97.436,M,51.640,M,,*4D
$GPGGA,160513.00,4825.075377,N,00428.360222,W,1,11,0.8,97.437,M,51.640,M,,*4D
$GPGGA,160514.00,4825.075376,N,00428.360222,W,1,11,0.8,97.439,M,51.640,M,,*45
$GPGGA,160515.00,4825.075376,N,00428.360221,W,1,11,0.8,97.440,M,51.640,M,,*49
$GPGGA,160516.00,4825.075376,N,00428.360221,W,1,11,0.8,97.441,M,51.640,M,,*4B
$GPGGA,160517.00,4825.075376,N,00428.360222,W,1,11,0.8,97.439,M,51.640,M,,*46
$GPGGA,160518.00,4825.075375,N,00428.360221,W,1,11,0.8,97.442,M,51.640,M,,*45
$GPGGA,160519.00,4825.075374,N,00428.360221,W,1,11,0.8,97.447,M,51.640,M,,*40
$GPGGA,160520.00,4825.075373,N,00428.360220,W,1,11,0.8,97.449,M,51.640,M,,*42
$GPGGA,160521.00,4825.075373,N,00428.360219,W,1,11,0.8,97.448,M,51.640,M,,*48
$GPGGA,160522.00,4825.075373,N,00428.360220,W,1,11,0.8,97.450,M,51.640,M,,*48
$GPGGA,160523.00,4825.075372,N,00428.360219,W,1,11,0.8,97.454,M,51.640,M,,*46
$GPGGA,160524.00,4825.075373,N,00428.360219,W,1,11,0.8,97.463,M,51.640,M,,*44
$GPGGA,160525.00,4825.075372,N,00428.360218,W,1,11,0.8,97.460,M,51.640,M,,*46
$GPGGA,160526.00,4825.075373,N,00428.360219,W,1,11,0.8,97.462,M,51.640,M,,*47
$GPGGA,160527.00,4825.075374,N,00428.360218,W,1,11,0.8,97.467,M,51.640,M,,*45
$GPGGA,160528.00,4825.075373,N,00428.360219,W,1,11,0.8,97.466,M,51.640,M,,*4D
$GPGGA,160529.00,4825.075374,N,00428.360219,W,1,11,0.8,97.466,M,51.640,M,,*4B
$GPGGA,160530.00,4825.075375,N,00428.360222,W,1,11,0.8,97.461,M,51.640,M,,*4D
$GPGGA,160531.00,4825.075375,N,00428.360220,W,1,11,0.8,97.467,M,51.640,M,,*48
$GPGGA,160532.00,4825.075376,N,00428.360220,W,1,11,0.8,97.469,M,51.640,M,,*46
$GPGGA,160533.00,4825.075376,N,00428.360219,W,1,11,0.8,97.471,M,51.640,M,,*44
$GPGGA,160534.00,4825.075375,N,00428.360220,W,1,11,0.8,97.473,M,51.640,M,,*48
$GPGGA,160535.00,4825.075376,N,00428.360219,W,1,11,0.8,97.476,M,51.640,M,,*45
$GPGGA,160536.00,4825.075377,N,00428.360220,W,1,11,0.8,97.477,M,51.640,M,,*4C
$GPGGA,160537.00,4825.075377,N,00428.360219,W,1,11,0.8,97.480,M,51.640,M,,*4F
$GPGGA,160538.00,4825.075376,N,00428.360219,W,1,11,0.8,97.480,M,51.640,M,,*41
$GPGGA,160539.00,4825.075377,N,00428.360219,W,1,11,0.8,97.478,M,51.640,M,,*46
$GPGGA,160540.00,4825.075377,N,00428.360218,W,1,11,0.8,97.480,M,51.640,M,,*4E
$GPGGA,160541.00,4825.075377,N,00428.360218,W,1,11,0.8,97.482,M,51.640,M,,*4D
$GPGGA,160542.00,4825.075378,N,00428.360218,W,1,11,0.8,97.485,M,51.640,M,,*46
$GPGGA,160543.00,4825.075378,N,00428.360220,W,1,11,0.8,97.481,M,51.640,M,,*48
$GPGGA,160544.00,4825.075377,N,00428.360218,W,1,11,0.8,97.488,M,51.640,M,,*42
$GPGGA,160545.00,4825.075378,N,00428.360217,W,1,11,0.8,97.488,M,51.640,M,,*43
$GPGGA,160546.00,4825.075378,N,00428.360216,W,1,11,0.8,97.492,M,51.640,M,,*4A
$GPGGA,160547.00,4825.075377,N,00428.360215,W,1,11,0.8,97.493,M,51.640,M,,*46
$GPGGA,160548.00,4825.075378,N,00428.360215,W,1,11,0.8,97.497,M,51.640,M,,*42
$GPGGA,160549.00,4825.075377,N,00428.360214,W,1,11,0.8,97.500,M,51.640,M,,*42
$GPGGA,160550.00,4825.075377,N,00428.360213,W,1,11,0.8,97.497,M,51.640,M,,*42
$GPGGA,160551.00,4825.075377,N,00428.360213,W,1,11,0.8,97.500,M,51.640,M,,*4C
$GPGGA,160552.00,4825.075376,N,00428.360213,W,1,11,0.8,97.504,M,51.640,M,,*4A
$GPGGA,160553.00,4825.075375,N,00428.360212,W,1,11,0.8,97.506,M,51.640,M,,*4B
$GPGGA,160554.00,4825.075374,N,00428.360212,W,1,11,0.8,97.506,M,51.640,M,,*4D
$GPGGA,160555.00,4825.075374,N,00428.360211,W,1,11,0.8,97.507,M,51.640,M,,*4E
$GPGGA,160556.00,4825.075372,N,00428.360211,W,1,11,0.8,97.506,M,51.640,M,,*4A
$GPGGA,160557.00,4825.075371,N,00428.360210,W,1,11,0.8,97.513,M,51.640,M,,*4D
$GPGGA,160558.00,4825.075371,N,00428.360209,W,1,11,0.8,97.512,M,51.640,M,,*4B
$GPGGA,160559.00,4825.075370,N,00428.360208,W,1,11,0.8,97.514,M,51.640,M,,*4C
$GPGGA,160600.00,4825.075369,N,00428.360207,W,1,11,0.8,97.515,M,51.640,M,,*45
$GPGGA,160601.00,4825.075368,N,00428.360206,W,1,11,0.8,97.521,M,51.640,M,,*43
$GPGGA,160602.00,4825.075367,N,00428.360205,W,1,11,0.8,97.524,M,51.640,M,,*49
$GPGGA,160603.00,4825.075367,N,00428.360205,W,1,11,0.8,97.525,M,51.640,M,,*49
$GPGGA,160604.00,4825.075366,N,00428.360204,W,1,11,0.8,97.527,M,51.640,M,,*4C
$GPGGA,160605.00,4825.075365,N,00428.360204,W,1,11,0.8,97.528,M,51.640,M,,*41
$GPGGA,160606.00,4825.075363,N,00428.360203,W,1,11,0.8,97.533,M,51.640,M,,*49
$GPGGA,160607.00,4825.075362,N,00428.360203,W,1,11,0.8,97.536,M,51.640,M,,*4C
$GPGGA,160608.00,4825.075361,N,00428.360201,W,1,11,0.8,97.539,M,51.640,M,,*4D
$GPGGA,160609.00,4825.075361,N,00428.360201,W,1,11,0.8,97.541,M,51.640,M,,*43
$GPGGA,160610.00,4825.075361,N,00428.360200,W,1,11,0.8,97.543,M,51.640,M,,*48
$GPGGA,160611.00,4825.075360,N,00428.360200,W,1,11,0.8,97.543,M,51.640,M,,*48
$GPGGA,160612.00,4825.075360,N,00428.360200,W,1,11,0.8,97.544,M,51.640,M,,*4C
$GPGGA,160613.00,4825.075359,N,00428.360200,W,1,11,0.8,97.547,M,51.640,M,,*44
$GPGGA,160614.00,4825.075360,N,00428.360200,W,1,11,0.8,97.547,M,51.640,M,,*49
$GPGGA,160615.00,4825.075359,N,00428.360201,W,1,11,0.8,97.547,M,51.640,M,,*43
$GPGGA,160616.00,4825.075359,N,00428.360200,W,1,11,0.8,97.551,M,51.640,M,,*46
$GPGGA,160617.00,4825.075358,N,00428.360200,W,1,11,0.8,97.551,M,51.640,M,,*46
$GPGGA,160618.00,4825.075357,N,00428.360201,W,1,11,0.8,97.549,M,51.640,M,,*4E
$GPGGA,160619.00,4825.075357,N,00428.360200,W,1,11,0.8,97.554,M,51.640,M,,*42
$GPGGA,160620.00,4825.075357,N,00428.360199,W,1,11,0.8,97.556,M,51.640,M,,*49
$GPGGA,160621.00,4825.075356,N,00428.360200,W,1,11,0.8,97.556,M,51.640,M,,*4A
$GPGGA,160622.00,4825.075355,N,00428.360198,W,1,11,0.8,97.558,M,51.640,M,,*46
$GPGGA,160623.00,4825.075354,N,00428.360197,W,1,11,0.8,97.561,M,51.640,M,,*43
$GPGGA,160624.00,4825.075354,N,00428.360197,W,1,11,0.8,97.565,M,51.640,M,,*40
$GPGGA,160625.00,4825.075353,N,00428.360195,W,1,11,0.8,97.565,M,51.640,M,,*44
$GPGGA,160626.00,4825.075352,N,00428.360194,W,1,11,0.8,97.567,M,51.640,M,,*45
$GPGGA,160627.00,4825.075353,N,00428.360194,W,1,11,0.8,97.568,M,51.640,M,,*4A
$GPGGA,160628.00,4825.075351,N,00428.360194,W,1,11,0.8,97.569,M,51.640,M,,*46
$GPGGA,160629.00,4825.075350,N,00428.360193,W,1,11,0.8,97.571,M,51.640,M,,*48
$GPGGA,160630.00,4825.075350,N,00428.360193,W,1,11,0.8,97.572,M,51.640,M,,*43
$GPGGA,160631.00,4825.075351,N,00428.360194,W,1,11,0.8,97.575,M,51.640,M,,*43
$GPGGA,160632.00,4825.075349,N,00428.360193,W,1,11,0.8,97.575,M,51.640,M,,*4E
$GPGGA,160633.00,4825.075347,N,00428.360193,W,1,11,0.8,97.575,M,51.640,M,,*41
$GPGGA,160634.00,4825.075348,N,00428.360194,W,1,11,0.8,97.578,M,51.640,M,,*43
$GPGGA,160635.00,4825.075347,N,00428.360194,W,1,11,0.8,97.578,M,51.640,M,,*4D
$GPGGA,160636.00,4825.075348,N,00428.360193,W,1,11,0.8,97.580,M,51.640,M,,*41
$GPGGA,160637.00,4825.075347,N,00428.360194,W,1,11,0.8,97.580,M,51.640,M,,*48
$GPGGA,160638.00,4825.075347,N,00428.360194,W,1,11,0.8,97.579,M,51.640,M,,*41
$GPGGA,160639.00,4825.075346,N,00428.360194,W,1,11,0.8,97.581,M,51.640,M,,*46
$GPGGA,160640.00,4825.075346,N,00428.360194,W,1,11,0.8,97.580,M,51.640,M,,*49
$GPGGA,160641.00,4825.075346,N,00428.360194,W,1,11,0.8,97.579,M,51.640,M,,*4E
$GPGGA,160642.00,4825.075347,N,00428.360194,W,1,11,0.8,97.581,M,51.640,M,,*4B
$GPGGA,160643.00,4825.075347,N,00428.360196,W,1,11,0.8,97.578,M,51.640,M,,*4E
$GPGGA,160644.00,4825.075347,N,00428.360196,W,1,11,0.8,97.580,M,51.640,M,,*4E
$GPGGA,160645.00,4825.075347,N,00428.360195,W,1,11,0.8,97.583,M,51.640,M,,*4F
$GPGGA,160646.00,4825.075346,N,00428.360196,W,1,11,0.8,97.585,M,51.640,M,,*48
$GPGGA,160647.00,4825.075346,N,00428.360197,W,1,11,0.8,97.585,M,51.640,M,,*48
$GPGGA,160648.00,4825.075345,N,00428.360198,W,1,11,0.8,97.586,M,51.640,M,,*48
$GPGGA,160649.00,4825.075344,N,00428.360197,W,1,11,0.8,97.585,M,51.640,M,,*44
$GPGGA,160650.00,4825.075343,N,00428.360198,W,1,11,0.8,97.585,M,51.640,M,,*44
$GPGGA,160651.00,4825.075342,N,00428.360199,W,1,11,0.8,97.584,M,51.640,M,,*44
$GPGGA,160652.00,4825.075341,N,00428.360199,W,1,11,0.8,97.584,M,51.640,M,,*44
$GPGGA,160653.00,4825.075341,N,00428.360200,W,1,11,0.8,97.585,M,51.640,M,,*47
$GPGGA,160654.00,4825.075341,N,00428.360201,W,1,11,0.8,97.586,M,51.640,M,,*42
$GPGGA,160655.00,4825.075340,N,00428.360201,W,1,11,0.8,97.584,M,51.640,M,,*40
$GPGGA,160656.00,4825.075340,N,00428.360201,W,1,11,0.8,97.588,M,51.640,M,,*4F
$GPGGA,160657.00,4825.075340,N,00428.360203,W,1,11,0.8,97.589,M,51.640,M,,*4D
$GPGGA,160658.00,4825.075341,N,00428.360203,W,1,11,0.8,97.587,M,51.640,M,,*4D
$GPGGA,160659.00,4825.075340,N,00428.360204,W,1,11,0.8,97.589,M,51.640,M,,*44
$GPGGA,160700.00,4825.075340,N,00428.360204,W,1,11,0.8,97.591,M,51.640,M,,*40
$GPGGA,160701.00,4825.075340,N,00428.360206,W,1,11,0.8,97.592,M,51.640,M,,*40
$GPGGA,160702.00,4825.075339,N,00428.360205,W,1,11,0.8,97.591,M,51.640,M,,*4D
$GPGGA,160703.00,4825.075339,N,00428.360206,W,1,11,0.8,97.594,M,51.640,M,,*4A
$GPGGA,160704.00,4825.075338,N,00428.360209,W,1,11,0.8,97.597,M,51.640,M,,*40
$GPGGA,160705.00,4825.075338,N,00428.360210,W,1,11,0.8,97.595,M,51.640,M,,*4B
$GPGGA,160706.00,4825.075337,N,00428.360210,W,1,11,0.8,97.597,M,51.640,M,,*45
$GPGGA,160707.00,4825.075336,N,00428.360210,W,1,11,0.8,97.600,M,51.640,M,,*48
$GPGGA,160708.00,4825.075337,N,00428.360212,W,1,11,0.8,97.599,M,51.640,M,,*47
$GPGGA,160709.00,4825.075337,N,00428.360212,W,1,11,0.8,97.601,M,51.640,M,,*44
$GPGGA,160710.00,4825.075337,N,00428.360213,W,1,11,0.8,97.601,M,51.640,M,,*4D
$GPGGA,160711.00,4825.075336,N,00428.360213,W,1,11,0.8,97.597,M,51.640,M,,*41
$GPGGA,160712.00,4825.075337,N,00428.360214,W,1,11,0.8,97.602,M,51.640,M,,*4B
$GPGGA,160713.00,4825.075336,N,00428.360215,W,1,11,0.8,97.599,M,51.640,M,,*4B
$GPGGA,160714.00,4825.075334,N,00428.360215,W,1,11,0.8,97.601,M,51.640,M,,*4C
$GPGGA,160715.00,4825.075335,N,00428.360216,W,1,11,0.8,97.603,M,51.640,M,,*4D
$GPGGA,160716.00,4825.075335,N,00428.360215,W,1,11,0.8,97.604,M,51.640,M,,*4A
$GPGGA,160717.00,4825.075334,N,00428.360215,W,1,11,0.8,97.603,M,51.640,M,,*4D
$GPGGA,160718.00,4825.075334,N,00428.360214,W,1,11,0.8,97.603,M,51.640,M,,*43
$GPGGA,160719.00,4825.075335,N,00428.360214,W,1,11,0.8,97.605,M,51.640,M,,*45
$GPGGA,160720.00,4825.075335,N,00428.360216,W,1,11,0.8,97.603,M,51.640,M,,*4B
$GPGGA,160721.00,4825.075334,N,00428.360216,W,1,11,0.8,97.607,M,51.640,M,,*4F
$GPGGA,160722.00,4825.075333,N,00428.360217,W,1,11,0.8,97.605,M,51.640,M,,*48
$GPGGA,160723.00,4825.075334,N,00428.360216,W,1,11,0.8,97.605,M,51.640,M,,*4F
$GPGGA,160724.00,4825.075334,N,00428.360218,W,1,11,0.8,97.605,M,51.640,M,,*46
$GPGGA,160725.00,4825.075334,N,00428.360217,W,1,11,0.8,97.604,M,51.640,M,,*49
$GPGGA,160726.00,4825.075335,N,00428.360216,W,1,11,0.8,97.603,M,51.640,M,,*4D
$GPGGA,160727.00,4825.075335,N,00428.360218,W,1,11,0.8,97.605,M,51.640,M,,*44
$GPGGA,160728.00,4825.075334,N,00428.360217,W,1,11,0.8,97.604,M,51.640,M,,*44
$GPGGA,160729.00,4825.075334,N,00428.360217,W,1,11,0.8,97.603,M,51.640,M,,*42
$GPGGA,160730.00,4825.075334,N,00428.360218,W,1,11,0.8,97.609,M,51.640,M,,*4F
$GPGGA,160731.00,4825.075333,N,00428.360217,W,1,11,0.8,97.609,M,51.640,M,,*46
$GPGGA,160732.00,4825.075333,N,00428.360218,W,1,11,0.8,97.607,M,51.640,M,,*44
$GPGGA,160733.00,4825.075332,N,00428.360217,W,1,11,0.8,97.607,M,51.640,M,,*4B
$GPGGA,160734.00,4825.075332,N,00428.360218,W,1,11,0.8,97.608,M,51.640,M,,*4C
$GPGGA,160735.00,4825.075332,N,00428.360218,W,1,11,0.8,97.608,M,51.640,M,,*4D
$GPGGA,160736.00,4825.075331,N,00428.360219,W,1,11,0.8,97.609,M,51.640,M,,*4D
$GPGGA,160737.00,4825.075331,N,00428.360218,W,1,11,0.8,97.610,M,51.640,M,,*45
$GPGGA,160738.00,4825.075332,N,00428.360218,W,1,11,0.8,97.610,M,51.640,M,,*49
$GPGGA,160739.00,4825.075331,N,00428.360218,W,1,11,0.8,97.612,M,51.640,M,,*49
$GPGGA,160740.00,4825.075331,N,00428.360218,W,1,11,0.8,97.612,M,51.640,M,,*47
$GPGGA,160741.00,4825.075331,N,00428.360219,W,1,11,0.8,97.613,M,51.640,M,,*46
$GPGGA,160742.00,4825.075331,N,00428.360218,W,1,11,0.8,97.610,M,51.640,M,,*47
$GPGGA,160743.00,4825.075332,N,00428.360218,W,1,11,0.8,97.612,M,51.640,M,,*47
$GPGGA,160744.00,4825.075332,N,00428.360218,W,1,11,0.8,97.612,M,51.640,M,,*40
$GPGGA,160745.00,4825.075332,N,00428.360217,W,1,11,0.8,97.613,M,51.640,M,,*4F
$GPGGA,160746.00,4825.075332,N,00428.360217,W,1,11,0.8,97.614,M,51.640,M,,*4B
$GPGGA,160747.00,4825.075332,N,00428.360215,W,1,11,0.8,97.616,M,51.640,M,,*4A
$GPGGA,160748.00,4825.075330,N,00428.360215,W,1,11,0.8,97.617,M,51.640,M,,*46
$GPGGA,160749.00,4825.075331,N,00428.360215,W,1,11,0.8,97.617,M,51.640,M,,*46
$GPGGA,160750.00,4825.075330,N,00428.360214,W,1,11,0.8,97.615,M,51.640,M,,*4C
$GPGGA,160751.00,4825.075330,N,00428.360214,W,1,11,0.8,97.617,M,51.640,M,,*4F
$GPGGA,160752.00,4825.075330,N,00428.360213,W,1,11,0.8,97.618,M,51.640,M,,*44
$GPGGA,160753.00,4825.075329,N,00428.360213,W,1,11,0.8,97.622,M,51.640,M,,*44
$GPGGA,160754.00,4825.075329,N,00428.360212,W,1,11,0.8,97.620,M,51.640,M,,*40
$GPGGA,160755.00,4825.075328,N,00428.360212,W,1,11,0.8,97.624,M,51.640,M,,*44
$GPGGA,160756.00,4825.075329,N,00428.360210,W,1,11,0.8,97.626,M,51.640,M,,*46
$GPGGA,160757.00,4825.075329,N,00428.360212,W,1,11,0.8,97.622,M,51.640,M,,*41
$GPGGA,160758.00,4825.075329,N,00428.360212,W,1,11,0.8,97.624,M,51.640,M,,*48
$GPGGA,160759.00,4825.075329,N,00428.360212,W,1,11,0.8,97.621,M,51.640,M,,*4C
$GPGGA,160800.00,4825.075329,N,00428.360213,W,1,11,0.8,97.620,M,51.640,M,,*4F
$GPGGA,160801.00,4825.075328,N,00428.360214,W,1,11,0.8,97.623,M,51.640,M,,*4B
$GPGGA,160802.00,4825.075329,N,00428.360213,W,1,11,0.8,97.622,M,51.640,M,,*4F
$GPGGA,160803.00,4825.075329,N,00428.360213,W,1,11,0.8,97.624,M,51.640,M,,*48
$GPGGA,160804.00,4825.075329,N,00428.360212,W,1,11,0.8,97.628,M,51.640,M,,*42
$GPGGA,160805.00,4825.075328,N,00428.360211,W,1,11,0.8,97.628,M,51.640,M,,*41
$GPGGA,160806.00,4825.075328,N,00428.360210,W,1,11,0.8,97.631,M,51.640,M,,*4B
$GPGGA,160807.00,4825.075328,N,00428.360208,W,1,11,0.8,97.632,M,51.640,M,,*40
$GPGGA,160808.00,4825.075328,N,00428.360209,W,1,11,0.8,97.634,M,51.640,M,,*48
$GPGGA,160809.00,4825.075328,N,00428.360207,W,1,11,0.8,97.635,M,51.640,M,,*46
$GPGGA,160810.00,4825.075328,N,00428.360207,W,1,11,0.8,97.637,M,51.640,M,,*4C
$GPGGA,160811.00,4825.075328,N,00428.360206,W,1,11,0.8,97.636,M,51.640,M,,*4D
$GPGGA,160812.00,4825.075329,N,00428.360206,W,1,11,0.8,97.640,M,51.640,M,,*4E
$GPGGA,160813.00,4825.075329,N,00428.360206,W,1,11,0.8,97.636,M,51.640,M,,*4E
$GPGGA,160814.00,4825.075328,N,00428.360205,W,1,11,0.8,97.637,M,51.640,M,,*4A
$GPGGA,160815.00,4825.075329,N,00428.360206,W,1,11,0.8,97.635,M,51.640,M,,*4B
$GPGGA,160816.00,4825.075330,N,00428.360207,W,1,11,0.8,97.635,M,51.640,M,,*41
$GPGGA,160817.00,4825.075329,N,00428.360206,W,1,11,0.8,97.635,M,51.640,M,,*49
$GPGGA,160818.00,4825.075329,N,00428.360206,W,1,11,0.8,97.633,M,51.640,M,,*40
$GPGGA,160819.00,4825.075328,N,00428.360205,W,1,11,0.8,97.634,M,51.640,M,,*44
$GPGGA,160820.00,4825.075328,N,00428.360204,W,1,11,0.8,97.635,M,51.640,M,,*4E
$GPGGA,160821.00,4825.075329,N,00428.360205,W,1,11,0.8,97.635,M,51.640,M,,*4F
$GPGGA,160822.00,4825.075329,N,00428.360204,W,1,11,0.8,97.640,M,51.640,M,,*4F
$GPGGA,160823.00,4825.075330,N,00428.360206,W,1,11,0.8,97.637,M,51.640,M,,*44
$GPGGA,160824.00,4825.075329,N,00428.360207,W,1,11,0.8,97.640,M,51.640,M,,*4A
$GPGGA,160825.00,4825.075329,N,00428.360206,W,1,11,0.8,97.640,M,51.640,M,,*4A
$GPGGA,160826.00,4825.075329,N,00428.360205,W,1,11,0.8,97.639,M,51.640,M,,*44
$GPGGA,160827.00,4825.075329,N,00428.360204,W,1,11,0.8,97.639,M,51.640,M,,*44
$GPGGA,160828.00,4825.075330,N,00428.360203,W,1,11,0.8,97.643,M,51.640,M,,*49
$GPGGA,160829.00,4825.075328,N,00428.360205,W,1,11,0.8,97.642,M,51.640,M,,*46
$GPGGA,160830.00,4825.075330,N,00428.360206,W,1,11,0.8,97.640,M,51.640,M,,*46
$GPGGA,160831.00,4825.075329,N,00428.360205,W,1,11,0.8,97.641,M,51.640,M,,*4D
$GPGGA,160832.00,4825.075330,N,00428.360206,W,1,11,0.8,97.641,M,51.640,M,,*45
$GPGGA,160833.00,4825.075330,N,00428.360206,W,1,11,0.8,97.645,M,51.640,M,,*40
$GPGGA,160834.00,4825.075331,N,00428.360205,W,1,11,0.8,97.646,M,51.640,M,,*46
$GPGGA,160835.00,4825.075330,N,00428.360205,W,1,11,0.8,97.651,M,51.640,M,,*40
$GPGGA,160836.00,4825.075331,N,00428.360205,W,1,11,0.8,97.656,M,51.640,M,,*45
$GPGGA,160837.00,4825.075331,N,00428.360205,W,1,11,0.8,97.664,M,51.640,M,,*45
$GPGGA,160838.00,4825.075331,N,00428.360204,W,1,11,0.8,97.670,M,51.640,M,,*4E
$GPGGA,160839.00,4825.075332,N,00428.360204,W,1,11,0.8,97.672,M,51.640,M,,*4E
$GPGGA,160840.00,4825.075331,N,00428.360204,W,1,11,0.8,97.677,M,51.640,M,,*46
$GPGGA,160841.00,4825.075332,N,00428.360205,W,1,11,0.8,97.681,M,51.640,M,,*4C
$GPGGA,160842.00,4825.075331,N,00428.360204,W,1,11,0.8,97.683,M,51.640,M,,*4F
$GPGGA,160843.00,4825.075332,N,00428.360202,W,1,11,0.8,97.688,M,51.640,M,,*40
$GPGGA,160844.00,4825.075331,N,00428.360202,W,1,11,0.8,97.688,M,51.640,M,,*44
$GPGGA,160845.00,4825.075332,N,00428.360201,W,1,11,0.8,97.690,M,51.640,M,,*4C
$GPGGA,160846.00,4825.075333,N,00428.360201,W,1,11,0.8,97.692,M,51.640,M,,*4C
$GPGGA,160847.00,4825.075332,N,00428.360200,W,1,11,0.8,97.696,M,51.640,M,,*49
$GPGGA,160848.00,4825.075332,N,00428.360201,W,1,11,0.8,97.695,M,51.640,M,,*44
$GPGGA,160849.00,4825.075332,N,00428.360198,W,1,11,0.8,97.701,M,51.640,M,,*4A
$GPGGA,160850.00,4825.075331,N,00428.360199,W,1,11,0.8,97.699,M,51.640,M,,*40
$GPGGA,160851.00,4825.075329,N,00428.360198,W,1,11,0.8,97.702,M,51.640,M,,*4A
$GPGGA,160852.00,4825.075330,N,00428.360199,W,1,11,0.8,97.702,M,51.640,M,,*40
$GPGGA,160853.00,4825.075331,N,00428.360198,W,1,11,0.8,97.698,M,51.640,M,,*43
$GPGGA,160854.00,4825.075331,N,00428.360197,W,1,11,0.8,97.694,M,51.640,M,,*47
$GPGGA,160855.00,4825.075330,N,00428.360198,W,1,11,0.8,97.695,M,51.640,M,,*49
$GPGGA,160856.00,4825.075331,N,00428.360198,W,1,11,0.8,97.692,M,51.640,M,,*4C
$GPGGA,160857.00,4825.075330,N,00428.360196,W,1,11,0.8,97.695,M,51.640,M,,*45
$GPGGA,160858.00,4825.075330,N,00428.360194,W,1,11,0.8,97.695,M,51.640,M,,*48
$GPGGA,160859.00,4825.075330,N,00428.360195,W,1,11,0.8,97.692,M,51.640,M,,*4F
$GPGGA,160900.00,4825.075329,N,00428.360194,W,1,11,0.8,97.696,M,51.640,M,,*4F
$GPGGA,160901.00,4825.075328,N,00428.360194,W,1,11,0.8,97.694,M,51.640,M,,*4D
$GPGGA,160902.00,4825.075330,N,00428.360193,W,1,11,0.8,97.692,M,51.640,M,,*46
$GPGGA,160903.00,4825.075329,N,00428.360193,W,1,11,0.8,97.693,M,51.640,M,,*4E
$GPGGA,160904.00,4825.075330,N,00428.360193,W,1,11,0.8,97.691,M,51.640,M,,*43
$GPGGA,160905.00,4825.075328,N,00428.360192,W,1,11,0.8,97.693,M,51.640,M,,*48
$GPGGA,160906.00,4825.075328,N,00428.360190,W,1,11,0.8,97.689,M,51.640,M,,*42
$GPGGA,160907.00,4825.075327,N,00428.360190,W,1,11,0.8,97.689,M,51.640,M,,*4C
$GPGGA,160908.00,4825.075326,N,00428.360189,W,1,11,0.8,97.689,M,51.640,M,,*4A
$GPGGA,160909.00,4825.075325,N,00428.360188,W,1,11,0.8,97.687,M,51.640,M,,*47
$GPGGA,160910.00,4825.075324,N,00428.360188,W,1,11,0.8,97.686,M,51.640,M,,*4F
$GPGGA,160911.00,4825.075323,N,00428.360187,W,1,11,0.8,97.689,M,51.640,M,,*49
$GPGGA,160912.00,4825.075323,N,00428.360186,W,1,11,0.8,97.688,M,51.640,M,,*4A
$GPGGA,160913.00,4825.075323,N,00428.360185,W,1,11,0.8,97.689,M,51.640,M,,*49
$GPGGA,160914.00,4825.075321,N,00428.360185,W,1,11,0.8,97.689,M,51.640,M,,*4C
$GPGGA,160915.00,4825.075320,N,00428.360186,W,1,11,0.8,97.692,M,51.640,M,,*45
$GPGGA,160916.00,4825.075321,N,00428.360184,W,1,11,0.8,97.692,M,51.640,M,,*45
$GPGGA,160917.00,4825.075320,N,00428.360185,W,1,11,0.8,97.693,M,51.640,M,,*45
$GPGGA,160918.00,4825.075319,N,00428.360184,W,1,11,0.8,97.692,M,51.640,M,,*40
$GPGGA,160919.00,4825.075319,N,00428.360185,W,1,11,0.8,97.695,M,51.640,M,,*47
$GPGGA,160920.00,4825.075317,N,00428.360183,W,1,11,0.8,97.697,M,51.640,M,,*47
$GPGGA,160921.00,4825.075318,N,00428.360184,W,1,11,0.8,97.696,M,51.640,M,,*4F
$GPGGA,160922.00,4825.075319,N,00428.360183,W,1,11,0.8,97.696,M,51.640,M,,*4A
$GPGGA,160923.00,4825.075318,N,00428.360182,W,1,11,0.8,97.700,M,51.640,M,,*45
$GPGGA,160924.00,4825.075317,N,00428.360181,W,1,11,0.8,97.699,M,51.640,M,,*4F
$GPGGA,160925.00,4825.075318,N,00428.360182,W,1,11,0.8,97.697,M,51.640,M,,*4C
$GPGGA,160926.00,4825.075319,N,00428.360181,W,1,11,0.8,97.701,M,51.640,M,,*43
$GPGGA,160927.00,4825.075318,N,00428.360181,W,1,11,0.8,97.705,M,51.640,M,,*47
$GPGGA,160928.00,4825.075318,N,00428.360181,W,1,11,0.8,97.709,M,51.640,M,,*44
$GPGGA,160929.00,4825.075317,N,00428.360182,W,1,11,0.8,97.709,M,51.640,M,,*49
$GPGGA,160930.00,4825.075317,N,00428.360181,W,1,11,0.8,97.712,M,51.640,M,,*48
$GPGGA,160931.00,4825.075315,N,00428.360180,W,1,11,0.8,97.717,M,51.640,M,,*4F
$GPGGA,160932.00,4825.075315,N,00428.360180,W,1,11,0.8,97.718,M,51.640,M,,*43
$GPGGA,160933.00,4825.075315,N,00428.360181,W,1,11,0.8,97.722,M,51.640,M,,*4A
$GPGGA,160934.00,4825.075315,N,00428.360180,W,1,11,0.8,97.725,M,51.640,M,,*4B
$GPGGA,160935.00,4825.075313,N,00428.360181,W,1,11,0.8,97.725,M,51.640,M,,*4D
$GPGGA,160936.00,4825.075312,N,00428.360181,W,1,11,0.8,97.731,M,51.640,M,,*4A
$GPGGA,160937.00,4825.075312,N,00428.360182,W,1,11,0.8,97.730,M,51.640,M,,*49
$GPGGA,160938.00,4825.075311,N,00428.360183,W,1,11,0.8,97.733,M,51.640,M,,*47
$GPGGA,160939.00,4825.075311,N,00428.360182,W,1,11,0.8,97.734,M,51.640,M,,*40
$GPGGA,160940.00,4825.075309,N,00428.360181,W,1,11,0.8,97.737,M,51.640,M,,*47
$GPGGA,160941.00,4825.075309,N,00428.360181,W,1,11,0.8,97.738,M,51.640,M,,*49
$GPGGA,160942.00,4825.075309,N,00428.360182,W,1,11,0.8,97.741,M,51.640,M,,*47
$GPGGA,160943.00,4825.075308,N,00428.360183,W,1,11,0.8,97.740,M,51.640,M,,*47
$GPGGA,160944.00,4825.075308,N,00428.360183,W,1,11,0.8,97.744,M,51.640,M,,*44
$GPGGA,160945.00,4825.075308,N,00428.360182,W,1,11,0.8,97.745,M,51.640,M,,*45
$GPGGA,160946.00,4825.075307,N,00428.360182,W,1,11,0.8,97.746,M,51.640,M,,*4A
$GPGGA,160947.00,4825.075307,N,00428.360183,W,1,11,0.8,97.751,M,51.640,M,,*4C
$GPGGA,160948.00,4825.075306,N,00428.360183,W,1,11,0.8,97.751,M,51.640,M,,*42
$GPGGA,160949.00,4825.075307,N,00428.360182,W,1,11,0.8,97.751,M,51.640,M,,*43
$GPGGA,160950.00,4825.075304,N,00428.360183,W,1,11,0.8,97.754,M,51.640,M,,*4C
$GPGGA,160951.00,4825.075304,N,00428.360184,W,1,11,0.8,97.757,M,51.640,M,,*49
$GPGGA,160952.00,4825.075304,N,00428.360182,W,1,11,0.8,97.756,M,51.640,M,,*4D
$GPGGA,160953.00,4825.075303,N,00428.360183,W,1,11,0.8,97.757,M,51.640,M,,*4B
$GPGGA,160954.00,4825.075302,N,00428.360183,W,1,11,0.8,97.757,M,51.640,M,,*4D
$GPGGA,160955.00,4825.075301,N,00428.360182,W,1,11,0.8,97.761,M,51.640,M,,*4B
$GPGGA,160956.00,4825.075302,N,00428.360182,W,1,11,0.8,97.761,M,51.640,M,,*4B
$GPGGA,160957.00,4825.075301,N,00428.360182,W,1,11,0.8,97.769,M,51.640,M,,*41
$GPGGA,160958.00,4825.075300,N,00428.360183,W,1,11,0.8,97.771,M,51.640,M,,*47
$GPGGA,160959.00,4825.075299,N,00428.360184,W,1,11,0.8,97.773,M,51.640,M,,*42
$GPGGA,161000.00,4825.075298,N,00428.360185,W,1,11,0.8,97.777,M,51.640,M,,*42
$GPGGA,161001.00,4825.075298,N,00428.360185,W,1,11,0.8,97.780,M,51.640,M,,*4B
$GPGGA,161002.00,4825.075298,N,00428.360185,W,1,11,0.8,97.778,M,51.640,M,,*4F
$GPGGA,161003.00,4825.075297,N,00428.360185,W,1,11,0.8,97.783,M,51.640,M,,*45
$GPGGA,161004.00,4825.075296,N,00428.360187,W,1,11,0.8,97.785,M,51.640,M,,*47
$GPGGA,161005.00,4825.075296,N,00428.360186,W,1,11,0.8,97.791,M,51.640,M,,*42
$GPGGA,161006.00,4825.075296,N,00428.360186,W,1,11,0.8,97.789,M,51.640,M,,*48
$GPGGA,161007.00,4825.075294,N,00428.360187,W,1,11,0.8,97.793,M,51.640,M,,*41
$GPGGA,161008.00,4825.075293,N,00428.360187,W,1,11,0.8,97.797,M,51.640,M,,*4D
$GPGGA,161009.00,4825.075293,N,00428.360187,W,1,11,0.8,97.797,M,51.640,M,,*4C
$GPGGA,161010.00,4825.075293,N,00428.360188,W,1,11,0.8,97.797,M,51.640,M,,*4B
$GPGGA,161011.00,4825.075292,N,00428.360189,W,1,11,0.8,97.798,M,51.640,M,,*45
$GPGGA,161012.00,4825.075292,N,00428.360190,W,1,11,0.8,97.801,M,51.640,M,,*41
$GPGGA,161013.00,4825.075292,N,00428.360191,W,1,11,0.8,97.801,M,51.640,M,,*41
$GPGGA,161014.00,4825.075291,N,00428.360191,W,1,11,0.8,97.805,M,51.640,M,,*41
$GPGGA,161015.00,4825.075289,N,00428.360193,W,1,11,0.8,97.803,M,51.640,M,,*4D
$GPGGA,161016.00,4825.075290,N,00428.360193,W,1,11,0.8,97.804,M,51.640,M,,*41
$GPGGA,161017.00,4825.075287,N,00428.360195,W,1,11,0.8,97.804,M,51.640,M,,*40
$GPGGA,161018.00,4825.075287,N,00428.360195,W,1,11,0.8,97.803,M,51.640,M,,*48
$GPGGA,161019.00,4825.075287,N,00428.360195,W,1,11,0.8,97.800,M,51.640,M,,*4A
$GPGGA,161020.00,4825.075285,N,00428.360195,W,1,11,0.8,97.802,M,51.640,M,,*40
$GPGGA,161021.00,4825.075284,N,00428.360196,W,1,11,0.8,97.801,M,51.640,M,,*40
$GPGGA,161022.00,4825.075284,N,00428.360196,W,1,11,0.8,97.801,M,51.640,M,,*43
$GPGGA,161023.00,4825.075283,N,00428.360197,W,1,11,0.8,97.799,M,51.640,M,,*4A
$GPGGA,161024.00,4825.075283,N,00428.360196,W,1,11,0.8,97.801,M,51.640,M,,*42
$GPGGA,161025.00,4825.075282,N,00428.360196,W,1,11,0.8,97.798,M,51.640,M,,*4D
$GPGGA,161026.00,4825.075284,N,00428.360195,W,1,11,0.8,97.794,M,51.640,M,,*47
$GPGGA,161027.00,4825.075282,N,00428.360196,W,1,11,0.8,97.796,M,51.640,M,,*41
$GPGGA,161028.00,4825.075281,N,00428.360195,W,1,12,0.7,97.798,M,51.640,M,,*4C
$GPGGA,161029.00,4825.075280,N,00428.360196,W,1,12,0.7,97.799,M,51.640,M,,*4E
$GPGGA,161030.00,4825.075280,N,00428.360196,W,1,12,0.7,97.801,M,51.640,M,,*48
$GPGGA,161031.00,4825.075278,N,00428.360197,W,1,12,0.7,97.802,M,51.640,M,,*4C
$GPGGA,161032.00,4825.075279,N,00428.360196,W,1,12,0.7,97.806,M,51.640,M,,*4B
$GPGGA,161033.00,4825.075278,N,00428.360197,W,1,12,0.7,97.807,M,51.640,M,,*4B
$GPGGA,161034.00,4825.075277,N,00428.360197,W,1,12,0.7,97.807,M,51.640,M,,*43
$GPGGA,161035.00,4825.075277,N,00428.360196,W,1,12,0.7,97.806,M,51.640,M,,*42
$GPGGA,161036.00,4825.075275,N,00428.360196,W,1,12,0.7,97.805,M,51.640,M,,*40
$GPGGA,161037.00,4825.075274,N,00428.360195,W,1,12,0.7,97.807,M,51.640,M,,*41
$GPGGA,161038.00,4825.075274,N,00428.360196,W,1,12,0.7,97.812,M,51.640,M,,*49
$GPGGA,161039.00,4825.075272,N,00428.360196,W,1,12,0.7,97.808,M,51.640,M,,*45
$GPGGA,161040.00,4825.075272,N,00428.360195,W,1,12,0.7,97.814,M,51.640,M,,*45
$GPGGA,161041.00,4825.075271,N,00428.360194,W,1,12,0.7,97.816,M,51.640,M,,*44
$GPGGA,161042.00,4825.075271,N,00428.360193,W,1,12,0.7,97.814,M,51.640,M,,*42
$GPGGA,161043.00,4825.075272,N,00428.360192,W,1,12,0.7,97.816,M,51.640,M,,*43
$GPGGA,161044.00,4825.075271,N,00428.360192,W,1,12,0.7,97.820,M,51.640,M,,*42
$GPGGA,161045.00,4825.075270,N,00428.360192,W,1,12,0.7,97.820,M,51.640,M,,*42
$GPGGA,161046.00,4825.075271,N,00428.360191,W,1,12,0.7,97.821,M,51.640,M,,*42
$GPGGA,161047.00,4825.075269,N,00428.360190,W,1,12,0.7,97.823,M,51.640,M,,*49
$GPGGA,161048.00,4825.075269,N,00428.360190,W,1,12,0.7,97.822,M,51.640,M,,*47
$GPGGA,161049.00,4825.075269,N,00428.360189,W,1,12,0.7,97.826,M,51.640,M,,*4A
$GPGGA,161050.00,4825.075269,N,00428.360187,W,1,12,0.7,97.826,M,51.640,M,,*4C
$GPGGA,161051.00,4825.075269,N,00428.360188,W,1,12,0.7,97.831,M,51.640,M,,*44
$GPGGA,161052.00,4825.075269,N,00428.360186,W,1,12,0.7,97.831,M,51.640,M,,*49
$GPGGA,161053.00,4825.075267,N,00428.360186,W,1,12,0.7,97.836,M,51.640,M,,*41
$GPGGA,161054.00,4825.075267,N,00428.360186,W,1,12,0.7,97.834,M,51.640,M,,*44
$GPGGA,161055.00,4825.075267,N,00428.360187,W,1,12,0.7,97.837,M,51.640,M,,*47
$GPGGA,161056.00,4825.075268,N,00428.360184,W,1,12,0.7,97.836,M,51.640,M,,*49
$GPGGA,161057.00,4825.075267,N,00428.360185,W,1,12,0.7,97.839,M,51.640,M,,*49
$GPGGA,161058.00,4825.075266,N,00428.360184,W,1,12,0.7,97.841,M,51.640,M,,*49
$GPGGA,161059.00,4825.075268,N,00428.360183,W,1,12,0.7,97.840,M,51.640,M,,*40
$GPGGA,161100.00,4825.075267,N,00428.360184,W,1,12,0.7,97.841,M,51.640,M,,*44
$GPGGA,161101.00,4825.075267,N,00428.360182,W,1,12,0.7,97.840,M,51.640,M,,*42
$GPGGA,161102.00,4825.075267,N,00428.360183,W,1,12,0.7,97.846,M,51.640,M,,*46
$GPGGA,161103.00,4825.075267,N,00428.360182,W,1,12,0.7,97.844,M,51.640,M,,*44
$GPGGA,161104.00,4825.075267,N,00428.360182,W,1,12,0.7,97.848,M,51.640,M,,*4F
$GPGGA,161105.00,4825.075266,N,00428.360182,W,1,12,0.7,97.848,M,51.640,M,,*4F
$GPGGA,161106.00,4825.075266,N,00428.360182,W,1,12,0.7,97.850,M,51.640,M,,*45
$GPGGA,161107.00,4825.075266,N,00428.360180,W,1,12,0.7,97.854,M,51.640,M,,*42
$GPGGA,161108.00,4825.075265,N,00428.360181,W,1,12,0.7,97.854,M,51.640,M,,*4F
$GPGGA,161109.00,4825.075265,N,00428.360181,W,1,12,0.7,97.857,M,51.640,M,,*4D
$GPGGA,161110.00,4825.075266,N,00428.360178,W,1,12,0.7,97.861,M,51.640,M,,*45
$GPGGA,161111.00,4825.075265,N,00428.360179,W,1,12,0.7,97.865,M,51.640,M,,*42
$GPGGA,161112.00,4825.075265,N,00428.360178,W,1,12,0.7,97.868,M,51.640,M,,*4D
$GPGGA,161113.00,4825.075266,N,00428.360178,W,1,12,0.7,97.871,M,51.640,M,,*47
$GPGGA,161114.00,4825.075265,N,00428.360177,W,1,12,0.7,97.872,M,51.640,M,,*4F
$GPGGA,161115.00,4825.075263,N,00428.360178,W,1,12,0.7,97.879,M,51.640,M,,*4C
$GPGGA,161116.00,4825.075263,N,00428.360178,W,1,12,0.7,97.882,M,51.640,M,,*4B
$GPGGA,161117.00,4825.075262,N,00428.360177,W,1,12,0.7,97.885,M,51.640,M,,*43
$GPGGA,161118.00,4825.075263,N,00428.360175,W,1,12,0.7,97.885,M,51.640,M,,*4F
$GPGGA,161119.00,4825.075261,N,00428.360176,W,1,12,0.7,97.890,M,51.640,M,,*4B
$GPGGA,161120.00,4825.075262,N,00428.360175,W,1,12,0.7,97.892,M,51.640,M,,*43
$GPGGA,161121.00,4825.075261,N,00428.360177,W,1,12,0.7,97.898,M,51.640,M,,*49
$GPGGA,161122.00,4825.075260,N,00428.360176,W,1,12,0.7,97.898,M,51.640,M,,*4A
$GPGGA,161123.00,4825.075260,N,00428.360177,W,1,12,0.7,97.901,M,51.640,M,,*4B
$GPGGA,161124.00,4825.075259,N,00428.360178,W,1,12,0.7,97.905,M,51.640,M,,*4D
$GPGGA,161125.00,4825.075258,N,00428.360176,W,1,12,0.7,97.909,M,51.640,M,,*4F
$GPGGA,161126.00,4825.075257,N,00428.360176,W,1,12,0.7,97.911,M,51.640,M,,*4A
$GPGGA,161127.00,4825.075257,N,00428.360177,W,1,12,0.7,97.917,M,51.640,M,,*4C
$GPGGA,161128.00,4825.075256,N,00428.360177,W,1,12,0.7,97.916,M,51.640,M,,*43
$GPGGA,161129.00,4825.075255,N,00428.360177,W,1,12,0.7,97.923,M,51.640,M,,*47
$GPGGA,161130.00,4825.075254,N,00428.360177,W,1,12,0.7,97.928,M,51.640,M,,*45
$GPGGA,161131.00,4825.075254,N,00428.360177,W,1,12,0.7,97.930,M,51.640,M,,*4D
$GPGGA,161132.00,4825.075253,N,00428.360177,W,1,12,0.7,97.937,M,51.640,M,,*4E
$GPGGA,161133.00,4825.075253,N,00428.360179,W,1,12,0.7,97.942,M,51.640,M,,*43
$GPGGA,161134.00,4825.075252,N,00428.360178,W,1,12,0.7,97.943,M,51.640,M,,*45
$GPGGA,161135.00,4825.075252,N,00428.360179,W,1,12,0.7,97.944,M,51.640,M,,*42
$GPGGA,161136.00,4825.075252,N,00428.360179,W,1,12,0.7,97.944,M,51.640,M,,*41
$GPGGA,161137.00,4825.075251,N,00428.360180,W,1,12,0.7,97.948,M,51.640,M,,*49
$GPGGA,161138.00,4825.075251,N,00428.360179,W,1,12,0.7,97.947,M,51.640,M,,*4F
$GPGGA,161139.00,4825.075251,N,00428.360180,W,1,12,0.7,97.952,M,51.640,M,,*4C
$GPGGA,161140.00,4825.075251,N,00428.360180,W,1,12,0.7,97.952,M,51.640,M,,*42
$GPGGA,161141.00,4825.075250,N,00428.360179,W,1,12,0.7,97.952,M,51.640,M,,*44
$GPGGA,161142.00,4825.075249,N,00428.360179,W,1,12,0.7,97.954,M,51.640,M,,*49
$GPGGA,161143.00,4825.075249,N,00428.360179,W,1,12,0.7,97.957,M,51.640,M,,*4B
$GPGGA,161144.00,4825.075250,N,00428.360180,W,1,12,0.7,97.959,M,51.640,M,,*4C
$GPGGA,161145.00,4825.075249,N,00428.360180,W,1,12,0.7,97.962,M,51.640,M,,*4D
$GPGGA,161146.00,4825.075249,N,00428.360179,W,1,12,0.7,97.967,M,51.640,M,,*4D
$GPGGA,161147.00,4825.075248,N,00428.360181,W,1,12,0.7,97.972,M,51.640,M,,*4E
$GPGGA,161148.00,4825.075248,N,00428.360179,W,1,12,0.7,97.975,M,51.640,M,,*41
$GPGGA,161149.00,4825.075247,N,00428.360179,W,1,12,0.7,97.978,M,51.640,M,,*42
$GPGGA,161150.00,4825.075246,N,00428.360180,W,1,12,0.7,97.981,M,51.640,M,,*4B
$GPGGA,161151.00,4825.075246,N,00428.360179,W,1,12,0.7,97.980,M,51.640,M,,*4D
$GPGGA,161152.00,4825.075246,N,00428.360180,W,1,12,0.7,97.985,M,51.640,M,,*4D
$GPGGA,161153.00,4825.075247,N,00428.360179,W,1,12,0.7,97.988,M,51.640,M,,*46
$GPGGA,161154.00,4825.075245,N,00428.360178,W,1,12,0.7,97.989,M,51.640,M,,*43
$GPGGA,161155.00,4825.075246,N,00428.360178,W,1,12,0.7,97.994,M,51.640,M,,*4D
$GPGGA,161156.00,4825.075245,N,00428.360177,W,1,12,0.7,97.994,M,51.640,M,,*42
$GPGGA,161157.00,4825.075245,N,00428.360176,W,1,12,0.7,97.996,M,51.640,M,,*40
$GPGGA,161158.00,4825.075245,N,00428.360176,W,1,12,0.7,97.994,M,51.640,M,,*4D
$GPGGA,161159.00,4825.075245,N,00428.360176,W,1,12,0.7,97.999,M,51.640,M,,*41
$GPGGA,161200.00,4825.075244,N,00428.360176,W,1,12,0.7,98.000,M,51.640,M,,*49
$GPGGA,161201.00,4825.075242,N,00428.360176,W,1,12,0.7,98.001,M,51.640,M,,*4F
$GPGGA,161202.00,4825.075242,N,00428.360176,W,1,12,0.7,98.000,M,51.640,M,,*4D
$GPGGA,161203.00,4825.075242,N,00428.360176,W,1,12,0.7,98.001,M,51.640,M,,*4D
$GPGGA,161204.00,4825.075242,N,00428.360175,W,1,12,0.7,98.003,M,51.640,M,,*4B
$GPGGA,161205.00,4825.075241,N,00428.360174,W,1,12,0.7,98.002,M,51.640,M,,*49
$GPGGA,161206.00,4825.075242,N,00428.360173,W,1,12,0.7,98.003,M,51.640,M,,*4F
$GPGGA,161207.00,4825.075242,N,00428.360171,W,1,12,0.7,98.000,M,51.640,M,,*4F
$GPGGA,161208.00,4825.075241,N,00428.360170,W,1,12,0.7,97.999,M,51.640,M,,*44
$GPGGA,161209.00,4825.075242,N,00428.360169,W,1,12,0.7,97.999,M,51.640,M,,*4E
$GPGGA,161210.00,4825.075241,N,00428.360169,W,1,12,0.7,97.998,M,51.640,M,,*44
$GPGGA,161211.00,4825.075241,N,00428.360168,W,1,12,0.7,97.993,M,51.640,M,,*4F
$GPGGA,161212.00,4825.075239,N,00428.360167,W,1,12,0.7,97.994,M,51.640,M,,*4B
$GPGGA,161213.00,4825.075240,N,00428.360166,W,1,12,0.7,97.994,M,51.640,M,,*45
$GPGGA,161214.00,4825.075238,N,00428.360166,W,1,12,0.7,97.995,M,51.640,M,,*4C
$GPGGA,161215.00,4825.075238,N,00428.360166,W,1,12,0.7,97.994,M,51.640,M,,*4C
$GPGGA,161216.00,4825.075238,N,00428.360165,W,1,12,0.7,97.994,M,51.640,M,,*4C
$GPGGA,161217.00,4825.075237,N,00428.360167,W,1,12,0.7,97.994,M,51.640,M,,*40
$GPGGA,161218.00,4825.075238,N,00428.360166,W,1,12,0.7,97.996,M,51.640,M,,*43
$GPGGA,161219.00,4825.075237,N,00428.360166,W,1,12,0.7,97.996,M,51.640,M,,*4D
$GPGGA,161220.00,4825.075237,N,00428.360164,W,1,12,0.7,97.993,M,51.640,M,,*40
$GPGGA,161221.00,4825.075238,N,00428.360164,W,1,12,0.7,97.996,M,51.640,M,,*4B
$GPGGA,161222.00,4825.075238,N,00428.360164,W,1,12,0.7,97.995,M,51.640,M,,*4B
$GPGGA,161223.00,4825.075238,N,00428.360164,W,1,12,0.7,97.996,M,51.640,M,,*49
$GPGGA,161224.00,4825.075238,N,00428.360163,W,1,12,0.7,97.997,M,51.640,M,,*48
$GPGGA,161225.00,4825.075240,N,00428.360162,W,1,12,0.7,97.999,M,51.640,M,,*49
$GPGGA,161226.00,4825.075239,N,00428.360160,W,1,12,0.7,97.995,M,51.640,M,,*4A
$GPGGA,161227.00,4825.075239,N,00428.360161,W,1,12,0.7,97.997,M,51.640,M,,*48
$GPGGA,161228.00,4825.075238,N,00428.360161,W,1,12,0.7,97.996,M,51.640,M,,*47
$GPGGA,161229.00,4825.075240,N,00428.360160,W,1,12,0.7,98.001,M,51.640,M,,*40
$GPGGA,161230.00,4825.075239,N,00428.360160,W,1,12,0.7,98.001,M,51.640,M,,*46
$GPGGA,161231.00,4825.075239,N,00428.360160,W,1,12,0.7,98.004,M,51.640,M,,*42
$GPGGA,161232.00,4825.075240,N,00428.360159,W,1,12,0.7,98.005,M,51.640,M,,*44
$GPGGA,161233.00,4825.075240,N,00428.360158,W,1,12,0.7,98.002,M,51.640,M,,*43
$GPGGA,161234.00,4825.075240,N,00428.360157,W,1,12,0.7,98.006,M,51.640,M,,*4F
$GPGGA,161235.00,4825.075240,N,00428.360156,W,1,12,0.7,98.005,M,51.640,M,,*4C
$GPGGA,161236.00,4825.075240,N,00428.360156,W,1,12,0.7,98.004,M,51.640,M,,*4E
$GPGGA,161237.00,4825.075239,N,00428.360154,W,1,12,0.7,98.006,M,51.640,M,,*41
$GPGGA,161238.00,4825.075240,N,00428.360152,W,1,12,0.7,98.006,M,51.640,M,,*46
$GPGGA,161239.00,4825.075241,N,00428.360152,W,1,12,0.7,98.010,M,51.640,M,,*41
$GPGGA,161240.00,4825.075242,N,00428.360151,W,1,12,0.7,98.012,M,51.640,M,,*4D
$GPGGA,161241.00,4825.075241,N,00428.360150,W,1,12,0.7,98.018,M,51.640,M,,*44
$GPGGA,161242.00,4825.075241,N,00428.360150,W,1,12,0.7,98.019,M,51.640,M,,*46
$GPGGA,161243.00,4825.075241,N,00428.360149,W,1,12,0.7,98.020,M,51.640,M,,*45
$GPGGA,161244.00,4825.075240,N,00428.360150,W,1,12,0.7,98.023,M,51.640,M,,*48
$GPGGA,161245.00,4825.075240,N,00428.360149,W,1,12,0.7,98.026,M,51.640,M,,*44
$GPGGA,161246.00,4825.075239,N,00428.360149,W,1,12,0.7,98.026,M,51.640,M,,*49
$GPGGA,161247.00,4825.075239,N,00428.360148,W,1,12,0.7,98.029,M,51.640,M,,*46
$GPGGA,161248.00,4825.075238,N,00428.360147,W,1,12,0.7,98.032,M,51.640,M,,*4D
$GPGGA,161249.00,4825.075235,N,00428.360148,W,1,12,0.7,98.033,M,51.640,M,,*4F
$GPGGA,161250.00,4825.075236,N,00428.360147,W,1,12,0.7,98.038,M,51.640,M,,*40
$GPGGA,161251.00,4825.075236,N,00428.360146,W,1,12,0.7,98.040,M,51.640,M,,*4F
$GPGGA,161252.00,4825.075235,N,00428.360145,W,1,12,0.7,98.041,M,51.640,M,,*4D
$GPGGA,161253.00,4825.075235,N,00428.360145,W,1,12,0.7,98.042,M,51.640,M,,*4F
$GPGGA,161254.00,4825.075234,N,00428.360144,W,1,12,0.7,98.044,M,51.640,M,,*4E
$GPGGA,161255.00,4825.075234,N,00428.360143,W,1,12,0.7,98.048,M,51.640,M,,*44
$GPGGA,161256.00,4825.075233,N,00428.360142,W,1,12,0.7,98.046,M,51.640,M,,*4F
$GPGGA,161257.00,4825.075233,N,00428.360143,W,1,12,0.7,98.051,M,51.640,M,,*49
$GPGGA,161258.00,4825.075233,N,00428.360143,W,1,12,0.7,98.052,M,51.640,M,,*45
$GPGGA,161259.00,4825.075232,N,00428.360142,W,1,12,0.7,98.054,M,51.640,M,,*42
$GPGGA,161300.00,4825.075233,N,00428.360143,W,1,12,0.7,98.054,M,51.640,M,,*4F
$GPGGA,161301.00,4825.075232,N,00428.360142,W,1,12,0.7,98.055,M,51.640,M,,*4F
$GPGGA,161302.00,4825.075231,N,00428.360143,W,1,12,0.7,98.052,M,51.640,M,,*49
$GPGGA,161303.00,4825.075232,N,00428.360143,W,1,12,0.7,98.053,M,51.640,M,,*4A
$GPGGA,161304.00,4825.075231,N,00428.360142,W,1,12,0.7,98.057,M,51.640,M,,*4B
$GPGGA,161305.00,4825.075231,N,00428.360142,W,1,12,0.7,98.057,M,51.640,M,,*4A
$GPGGA,161306.00,4825.075230,N,00428.360142,W,1,12,0.7,98.058,M,51.640,M,,*47
$GPGGA,161307.00,4825.075230,N,00428.360141,W,1,12,0.7,98.058,M,51.640,M,,*45
$GPGGA,161308.00,4825.075229,N,00428.360140,W,1,12,0.7,98.057,M,51.640,M,,*4C
$GPGGA,161309.00,4825.075229,N,00428.360139,W,1,12,0.7,98.059,M,51.640,M,,*4D
$GPGGA,161310.00,4825.075229,N,00428.360140,W,1,12,0.7,98.057,M,51.640,M,,*45
$GPGGA,161311.00,4825.075228,N,00428.360141,W,1,12,0.7,98.058,M,51.640,M,,*4B
$GPGGA,161312.00,4825.075228,N,00428.360140,W,1,12,0.7,98.056,M,51.640,M,,*47
$GPGGA,161313.00,4825.075228,N,00428.360140,W,1,12,0.7,98.060,M,51.640,M,,*43
$GPGGA,161314.00,4825.075229,N,00428.360140,W,1,12,0.7,98.061,M,51.640,M,,*44
$GPGGA,161315.00,4825.075229,N,00428.360140,W,1,12,0.7,98.058,M,51.640,M,,*4F
$GPGGA,161316.00,4825.075229,N,00428.360139,W,1,12,0.7,98.057,M,51.640,M,,*4D
$GPGGA,161317.00,4825.075229,N,00428.360138,W,1,12,0.7,98.060,M,51.640,M,,*49
$GPGGA,161318.00,4825.075229,N,00428.360139,W,1,12,0.7,98.061,M,51.640,M,,*46
$GPGGA,161319.00,4825.075229,N,00428.360138,W,1,12,0.7,98.061,M,51.640,M,,*46
$GPGGA,161320.00,4825.075229,N,00428.360137,W,1,12,0.7,98.061,M,51.640,M,,*43
$GPGGA,161321.00,4825.075229,N,00428.360138,W,1,12,0.7,98.061,M,51.640,M,,*4D
$GPGGA,161322.00,4825.075228,N,00428.360137,W,1,12,0.7,98.063,M,51.640,M,,*42
$GPGGA,161323.00,4825.075228,N,00428.360138,W,1,12,0.7,98.063,M,51.640,M,,*4C
$GPGGA,161324.00,4825.075226,N,00428.360137,W,1,12,0.7,98.064,M,51.640,M,,*4D
$GPGGA,161325.00,4825.075226,N,00428.360137,W,1,12,0.7,98.065,M,51.640,M,,*4D
$GPGGA,161326.00,4825.075227,N,00428.360135,W,1,12,0.7,98.067,M,51.640,M,,*4F
$GPGGA,161327.00,4825.075227,N,00428.360136,W,1,12,0.7,98.067,M,51.640,M,,*4D
$GPGGA,161328.00,4825.075227,N,00428.360137,W,1,12,0.7,98.068,M,51.640,M,,*4C
$GPGGA,161329.00,4825.075227,N,00428.360137,W,1,12,0.7,98.068,M,51.640,M,,*4D
$GPGGA,161330.00,4825.075227,N,00428.360137,W,1,12,0.7,98.069,M,51.640,M,,*44
$GPGGA,161331.00,4825.075227,N,00428.360137,W,1,12,0.7,98.070,M,51.640,M,,*4D
$GPGGA,161332.00,4825.075227,N,00428.360138,W,1,12,0.7,98.073,M,51.640,M,,*42
$GPGGA,161333.00,4825.075227,N,00428.360138,W,1,12,0.7,98.071,M,51.640,M,,*41
$GPGGA,161334.00,4825.075227,N,00428.360138,W,1,12,0.7,98.074,M,51.640,M,,*43
$GPGGA,161335.00,4825.075226,N,00428.360138,W,1,12,0.7,98.073,M,51.640,M,,*44
$GPGGA,161336.00,4825.075226,N,00428.360137,W,1,12,0.7,98.073,M,51.640,M,,*48
$GPGGA,161337.00,4825.075225,N,00428.360137,W,1,12,0.7,98.075,M,51.640,M,,*4C
$GPGGA,161338.00,4825.075224,N,00428.360138,W,1,12,0.7,98.078,M,51.640,M,,*40
$GPGGA,161339.00,4825.075225,N,00428.360136,W,1,12,0.7,98.077,M,51.640,M,,*41
$GPGGA,161340.00,4825.075225,N,00428.360136,W,1,12,0.7,98.075,M,51.640,M,,*4D
$GPGGA,161341.00,4825.075224,N,00428.360137,W,1,12,0.7,98.077,M,51.640,M,,*4E
$GPGGA,161342.00,4825.075224,N,00428.360136,W,1,12,0.7,98.072,M,51.640,M,,*49
$GPGGA,161343.00,4825.075223,N,00428.360137,W,1,12,0.7,98.070,M,51.640,M,,*4C
$GPGGA,161344.00,4825.075222,N,00428.360137,W,1,12,0.7,98.071,M,51.640,M,,*4B
$GPGGA,161345.00,4825.075223,N,00428.360138,W,1,12,0.7,98.073,M,51.640,M,,*46
$GPGGA,161346.00,4825.075223,N,00428.360137,W,1,12,0.7,98.073,M,51.640,M,,*4A
$GPGGA,161347.00,4825.075223,N,00428.360137,W,1,12,0.7,98.074,M,51.640,M,,*4C
$GPGGA,161348.00,4825.075225,N,00428.360137,W,1,12,0.7,98.074,M,51.640,M,,*45
$GPGGA,161349.00,4825.075223,N,00428.360137,W,1,12,0.7,98.073,M,51.640,M,,*45
$GPGGA,161350.00,4825.075224,N,00428.360138,W,1,12,0.7,98.077,M,51.640,M,,*41
$GPGGA,161351.00,4825.075224,N,00428.360137,W,1,12,0.7,98.080,M,51.640,M,,*47
$GPGGA,161352.00,4825.075225,N,00428.360137,W,1,12,0.7,98.081,M,51.640,M,,*44
$GPGGA,161353.00,4825.075225,N,00428.360137,W,1,12,0.7,98.083,M,51.640,M,,*47
$GPGGA,161354.00,4825.075225,N,00428.360138,W,1,12,0.7,98.082,M,51.640,M,,*4E
$GPGGA,161355.00,4825.075225,N,00428.360138,W,1,12,0.7,98.083,M,51.640,M,,*4E
$GPGGA,161356.00,4825.075224,N,00428.360138,W,1,12,0.7,98.084,M,51.640,M,,*4B
$GPGGA,161357.00,4825.075225,N,00428.360137,W,1,12,0.7,98.087,M,51.640,M,,*47
$GPGGA,161358.00,4825.075224,N,00428.360138,W,1,12,0.7,98.088,M,51.640,M,,*49
$GPGGA,161359.00,4825.075225,N,00428.360138,W,1,12,0.7,98.088,M,51.640,M,,*49
$GPGGA,161400.00,4825.075227,N,00428.360138,W,1,12,0.7,98.091,M,51.640,M,,*48
$GPGGA,161401.00,4825.075225,N,00428.360138,W,1,12,0.7,98.092,M,51.640,M,,*48
$GPGGA,161402.00,4825.075225,N,00428.360138,W,1,12,0.7,98.091,M,51.640,M,,*48
$GPGGA,161403.00,4825.075225,N,00428.360137,W,1,12,0.7,98.094,M,51.640,M,,*43
$GPGGA,161404.00,4825.075226,N,00428.360137,W,1,12,0.7,98.097,M,51.640,M,,*44
$GPGGA,161405.00,4825.075226,N,00428.360136,W,1,12,0.7,98.098,M,51.640,M,,*4B
$GPGGA,161406.00,4825.075226,N,00428.360136,W,1,12,0.7,98.098,M,51.640,M,,*48
$GPGGA,161407.00,4825.075226,N,00428.360136,W,1,12,0.7,98.100,M,51.640,M,,*49
$GPGGA,161408.00,4825.075227,N,00428.360135,W,1,12,0.7,98.104,M,51.640,M,,*40
$GPGGA,161409.00,4825.075227,N,00428.360135,W,1,12,0.7,98.102,M,51.640,M,,*47
$GPGGA,161410.00,4825.075229,N,00428.360134,W,1,12,0.7,98.101,M,51.640,M,,*43
$GPGGA,161411.00,4825.075229,N,00428.360134,W,1,12,0.7,98.106,M,51.640,M,,*45
$GPGGA,161412.00,4825.075229,N,00428.360134,W,1,12,0.7,98.107,M,51.640,M,,*47
$GPGGA,161413.00,4825.075231,N,00428.360134,W,1,12,0.7,98.103,M,51.640,M,,*4B
$GPGGA,161414.00,4825.075230,N,00428.360134,W,1,12,0.7,98.107,M,51.640,M,,*49
$GPGGA,161415.00,4825.075231,N,00428.360134,W,1,12,0.7,98.106,M,51.640,M,,*48
$GPGGA,161416.00,4825.075231,N,00428.360135,W,1,12,0.7,98.105,M,51.640,M,,*49
$GPGGA,161417.00,4825.075232,N,00428.360133,W,1,12,0.7,98.107,M,51.640,M,,*4F
$GPGGA,161418.00,4825.075232,N,00428.360134,W,1,12,0.7,98.106,M,51.640,M,,*46
$GPGGA,161419.00,4825.075232,N,00428.360132,W,1,12,0.7,98.109,M,51.640,M,,*4E
$GPGGA,161420.00,4825.075233,N,00428.360131,W,1,12,0.7,98.107,M,51.640,M,,*48
$GPGGA,161421.00,4825.075234,N,00428.360132,W,1,12,0.7,98.109,M,51.640,M,,*43
$GPGGA,161422.00,4825.075234,N,00428.360130,W,1,12,0.7,98.110,M,51.640,M,,*4A
$GPGGA,161423.00,4825.075234,N,00428.360129,W,1,12,0.7,98.113,M,51.640,M,,*40
$GPGGA,161424.00,4825.075235,N,00428.360130,W,1,12,0.7,98.113,M,51.640,M,,*4E
$GPGGA,161425.00,4825.075236,N,00428.360131,W,1,12,0.7,98.114,M,51.640,M,,*4A
$GPGGA,161426.00,4825.075236,N,00428.360129,W,1,12,0.7,98.116,M,51.640,M,,*42
$GPGGA,161427.00,4825.075238,N,00428.360128,W,1,12,0.7,98.118,M,51.640,M,,*42
$GPGGA,161428.00,4825.075238,N,00428.360130,W,1,12,0.7,98.119,M,51.640,M,,*45
$GPGGA,161429.00,4825.075239,N,00428.360129,W,1,12,0.7,98.123,M,51.640,M,,*44
$GPGGA,161430.00,4825.075239,N,00428.360130,W,1,12,0.7,98.125,M,51.640,M,,*42
$GPGGA,161431.00,4825.075240,N,00428.360128,W,1,12,0.7,98.126,M,51.640,M,,*47
$GPGGA,161432.00,4825.075239,N,00428.360128,W,1,12,0.7,98.125,M,51.640,M,,*49
$GPGGA,161433.00,4825.075239,N,00428.360129,W,1,12,0.7,98.129,M,51.640,M,,*45
$GPGGA,161434.00,4825.075239,N,00428.360128,W,1,12,0.7,98.131,M,51.640,M,,*4A
$GPGGA,161435.00,4825.075239,N,00428.360126,W,1,12,0.7,98.134,M,51.640,M,,*40
$GPGGA,161436.00,4825.075240,N,00428.360127,W,1,12,0.7,98.130,M,51.640,M,,*48
$GPGGA,161437.00,4825.075240,N,00428.360127,W,1,12,0.7,98.133,M,51.640,M,,*4A
$GPGGA,161438.00,4825.075239,N,00428.360127,W,1,12,0.7,98.133,M,51.640,M,,*4B
$GPGGA,161439.00,4825.075240,N,00428.360126,W,1,12,0.7,98.136,M,51.640,M,,*40
$GPGGA,161440.00,4825.075240,N,00428.360127,W,1,12,0.7,98.136,M,51.640,M,,*4F
$GPGGA,161441.00,4825.075240,N,00428.360126,W,1,12,0.7,98.138,M,51.640,M,,*41
$GPGGA,161442.00,4825.075240,N,00428.360126,W,1,12,0.7,98.142,M,51.640,M,,*4F
$GPGGA,161443.00,4825.075240,N,00428.360126,W,1,12,0.7,98.141,M,51.640,M,,*4D
$GPGGA,161444.00,4825.075239,N,00428.360127,W,1,12,0.7,98.144,M,51.640,M,,*40
$GPGGA,161445.00,4825.075240,N,00428.360127,W,1,12,0.7,98.143,M,51.640,M,,*48
$GPGGA,161446.00,4825.075240,N,00428.360127,W,1,12,0.7,98.151,M,51.640,M,,*48
$GPGGA,161447.00,4825.075241,N,00428.360127,W,1,12,0.7,98.152,M,51.640,M,,*4B
$GPGGA,161448.00,4825.075240,N,00428.360126,W,1,12,0.7,98.152,M,51.640,M,,*44
$GPGGA,161449.00,4825.075242,N,00428.360126,W,1,12,0.7,98.150,M,51.640,M,,*45
$GPGGA,161450.00,4825.075241,N,00428.360126,W,1,12,0.7,98.151,M,51.640,M,,*4F
$GPGGA,161451.00,4825.075243,N,00428.360126,W,1,12,0.7,98.154,M,51.640,M,,*49
$GPGGA,161452.00,4825.075242,N,00428.360124,W,1,12,0.7,98.151,M,51.640,M,,*4C
$GPGGA,161453.00,4825.075242,N,00428.360124,W,1,12,0.7,98.153,M,51.640,M,,*4F
$GPGGA,161454.00,4825.075242,N,00428.360123,W,1,12,0.7,98.154,M,51.640,M,,*48
$GPGGA,161455.00,4825.075242,N,00428.360122,W,1,12,0.7,98.152,M,51.640,M,,*4E
$GPGGA,161456.00,4825.075243,N,00428.360122,W,1,12,0.7,98.155,M,51.640,M,,*4B
$GPGGA,161457.00,4825.075244,N,00428.360124,W,1,12,0.7,98.156,M,51.640,M,,*48
$GPGGA,161458.00,4825.075245,N,00428.360124,W,1,12,0.7,98.157,M,51.640,M,,*47
$GPGGA,161459.00,4825.075245,N,00428.360124,W,1,12,0.7,98.161,M,51.640,M,,*43
$GPGGA,161500.00,4825.075245,N,00428.360125,W,1,12,0.7,98.163,M,51.640,M,,*4D
$GPGGA,161501.00,4825.075246,N,00428.360124,W,1,12,0.7,98.164,M,51.640,M,,*49
$GPGGA,161502.00,4825.075248,N,00428.360125,W,1,12,0.7,98.165,M,51.640,M,,*44
$GPGGA,161503.00,4825.075248,N,00428.360125,W,1,12,0.7,98.168,M,51.640,M,,*48
$GPGGA,161504.00,4825.075249,N,00428.360125,W,1,12,0.7,98.169,M,51.640,M,,*4F
$GPGGA,161505.00,4825.075250,N,00428.360125,W,1,12,0.7,98.171,M,51.640,M,,*4F
$GPGGA,161506.00,4825.075249,N,00428.360125,W,1,12,0.7,98.172,M,51.640,M,,*47
$GPGGA,161507.00,4825.075250,N,00428.360125,W,1,12,0.7,98.175,M,51.640,M,,*49
$GPGGA,161508.00,4825.075250,N,00428.360125,W,1,12,0.7,98.175,M,51.640,M,,*46
$GPGGA,161509.00,4825.075251,N,00428.360125,W,1,12,0.7,98.180,M,51.640,M,,*4C
$GPGGA,161510.00,4825.075253,N,00428.360125,W,1,12,0.7,98.179,M,51.640,M,,*40
$GPGGA,161511.00,4825.075252,N,00428.360124,W,1,12,0.7,98.180,M,51.640,M,,*47
$GPGGA,161512.00,4825.075252,N,00428.360125,W,1,12,0.7,98.180,M,51.640,M,,*45
$GPGGA,161513.00,4825.075253,N,00428.360124,W,1,12,0.7,98.180,M,51.640,M,,*44
$GPGGA,161514.00,4825.075254,N,00428.360124,W,1,12,0.7,98.181,M,51.640,M,,*45
$GPGGA,161515.00,4825.075255,N,00428.360125,W,1,12,0.7,98.184,M,51.640,M,,*41
$GPGGA,161516.00,4825.075255,N,00428.360124,W,1,12,0.7,98.184,M,51.640,M,,*43
$GPGGA,161517.00,4825.075255,N,00428.360125,W,1,12,0.7,98.185,M,51.640,M,,*42
$GPGGA,161518.00,4825.075254,N,00428.360125,W,1,12,0.7,98.182,M,51.640,M,,*4B
$GPGGA,161519.00,4825.075255,N,00428.360126,W,1,12,0.7,98.182,M,51.640,M,,*48
$GPGGA,161520.00,4825.075254,N,00428.360125,W,1,12,0.7,98.186,M,51.640,M,,*44
$GPGGA,161521.00,4825.075254,N,00428.360126,W,1,12,0.7,98.189,M,51.640,M,,*49
$GPGGA,161522.00,4825.075253,N,00428.360125,W,1,12,0.7,98.188,M,51.640,M,,*4F
$GPGGA,161523.00,4825.075253,N,00428.360125,W,1,12,0.7,98.187,M,51.640,M,,*41
$GPGGA,161524.00,4825.075253,N,00428.360125,W,1,12,0.7,98.188,M,51.640,M,,*49
$GPGGA,161525.00,4825.075253,N,00428.360127,W,1,12,0.7,98.190,M,51.640,M,,*43
$GPGGA,161526.00,4825.075252,N,00428.360126,W,1,12,0.7,98.190,M,51.640,M,,*40
$GPGGA,161527.00,4825.075252,N,00428.360127,W,1,12,0.7,98.190,M,51.640,M,,*40
$GPGGA,161528.00,4825.075252,N,00428.360127,W,1,12,0.7,98.194,M,51.640,M,,*4B
$GPGGA,161529.00,4825.075252,N,00428.360127,W,1,12,0.7,98.191,M,51.640,M,,*4F
$GPGGA,161530.00,4825.075252,N,00428.360127,W,1,12,0.7,98.192,M,51.640,M,,*44
$GPGGA,161531.00,4825.075253,N,00428.360128,W,1,12,0.7,98.195,M,51.640,M,,*4C
$GPGGA,161532.00,4825.075252,N,00428.360127,W,1,12,0.7,98.193,M,51.640,M,,*47
$GPGGA,161533.00,4825.075252,N,00428.360128,W,1,12,0.7,98.195,M,51.640,M,,*4F
$GPGGA,161534.00,4825.075253,N,00428.360129,W,1,12,0.7,98.200,M,51.640,M,,*47
$GPGGA,161535.00,4825.075253,N,00428.360129,W,1,12,0.7,98.196,M,51.640,M,,*4A
$GPGGA,161536.00,4825.075253,N,00428.360129,W,1,12,0.7,98.199,M,51.640,M,,*46
$GPGGA,161537.00,4825.075252,N,00428.360129,W,1,12,0.7,98.201,M,51.640,M,,*44
$GPGGA,161538.00,4825.075253,N,00428.360129,W,1,12,0.7,98.203,M,51.640,M,,*48
$GPGGA,161539.00,4825.075252,N,00428.360128,W,1,12,0.7,98.205,M,51.640,M,,*4F
$GPGGA,161540.00,4825.075253,N,00428.360130,W,1,12,0.7,98.206,M,51.640,M,,*4A
$GPGGA,161541.00,4825.075253,N,00428.360131,W,1,12,0.7,98.205,M,51.640,M,,*49
$GPGGA,161542.00,4825.075254,N,00428.360132,W,1,12,0.7,98.206,M,51.640,M,,*4D
$GPGGA,161543.00,4825.075254,N,00428.360132,W,1,12,0.7,98.204,M,51.640,M,,*4E
$GPGGA,161544.00,4825.075255,N,00428.360131,W,1,12,0.7,98.204,M,51.640,M,,*4B
$GPGGA,161545.00,4825.075255,N,00428.360131,W,1,12,0.7,98.205,M,51.640,M,,*4B
$GPGGA,161546.00,4825.075254,N,00428.360130,W,1,12,0.7,98.204,M,51.640,M,,*49
$GPGGA,161547.00,4825.075255,N,00428.360131,W,1,12,0.7,98.202,M,51.640,M,,*4E
$GPGGA,161548.00,4825.075254,N,00428.360129,W,1,12,0.7,98.201,M,51.640,M,,*4A
$GPGGA,161549.00,4825.075254,N,00428.360129,W,1,12,0.7,98.197,M,51.640,M,,*47
$GPGGA,161550.00,4825.075254,N,00428.360130,W,1,12,0.7,98.199,M,51.640,M,,*49
$GPGGA,161551.00,4825.075254,N,00428.360129,W,1,12,0.7,98.202,M,51.640,M,,*41
$GPGGA,161552.00,4825.075254,N,00428.360130,W,1,12,0.7,98.200,M,51.640,M,,*48
$GPGGA,161553.00,4825.075254,N,00428.360130,W,1,12,0.7,98.202,M,51.640,M,,*4B
$GPGGA,161554.00,4825.075253,N,00428.360130,W,1,12,0.7,98.199,M,51.640,M,,*4A
$GPGGA,161555.00,4825.075253,N,00428.360130,W,1,12,0.7,98.198,M,51.640,M,,*4A
$GPGGA,161556.00,4825.075253,N,00428.360131,W,1,12,0.7,98.197,M,51.640,M,,*47
$GPGGA,161557.00,4825.075253,N,00428.360130,W,1,12,0.7,98.194,M,51.640,M,,*44
$GPGGA,161558.00,4825.075254,N,00428.360131,W,1,12,0.7,98.195,M,51.640,M,,*4C
$GPGGA,161559.00,4825.075254,N,00428.360131,W,1,12,0.7,98.193,M,51.640,M,,*4B
$GPGGA,161600.00,4825.075254,N,00428.360130,W,1,12,0.7,98.193,M,51.640,M,,*45
$GPGGA,161601.00,4825.075253,N,00428.360130,W,1,12,0.7,98.195,M,51.640,M,,*45
$GPGGA,161602.00,4825.075252,N,00428.360131,W,1,12,0.7,98.194,M,51.640,M,,*47
$GPGGA,161603.00,4825.075252,N,00428.360131,W,1,12,0.7,98.196,M,51.640,M,,*44
$GPGGA,161604.00,4825.075252,N,00428.360131,W,1,12,0.7,98.196,M,51.640,M,,*43
$GPGGA,161605.00,4825.075251,N,00428.360131,W,1,12,0.7,98.193,M,51.640,M,,*44
$GPGGA,161606.00,4825.075251,N,00428.360131,W,1,12,0.7,98.194,M,51.640,M,,*40
